{"type":"FeatureCollection","features":[{"type":"Feature","properties":{"OBJECTID":18252,"GNIS_ID":1877179,"ANSICODE":"2407776","FEATURE":"Census","STATUS":null,"NAME":"Atascocita","POP_2010":65844,"COUNTY":"Harris","COUNTYFIPS":"201","STATE":"TX","STATE_FIPS":"48","ELEV_IN_M":21,"ELEV_IN_FT":69,"PopLevel":1},"geometry":{"type":"Point","coordinates":[-95.17659779999991,29.998830600000304]}},{"type":"Feature","properties":{"OBJECTID":19617,"GNIS_ID":1347681,"ANSICODE":"2408790","FEATURE":"Census","STATUS":null,"NAME":"Spring","POP_2010":54298,"COUNTY":"Harris","COUNTYFIPS":"201","STATE":"TX","STATE_FIPS":"48","ELEV_IN_M":37,"ELEV_IN_FT":121,"PopLevel":1},"geometry":{"type":"Point","coordinates":[-95.4171601,30.079940500000305]}},{"type":"Feature","properties":{"OBJECTID":19618,"GNIS_ID":1380966,"ANSICODE":"2409801","FEATURE":"Civil","STATUS":null,"NAME":"Baytown","POP_2010":71802,"COUNTY":"Harris","COUNTYFIPS":"201","STATE":"TX","STATE_FIPS":"48","ELEV_IN_M":7,"ELEV_IN_FT":23,"PopLevel":1},"geometry":{"type":"Point","coordinates":[-94.97742739999995,29.73550470000015]}},{"type":"Feature","properties":{"OBJECTID":20927,"GNIS_ID":1380948,"ANSICODE":"2410796","FEATURE":"Civil","STATUS":"County Seat","NAME":"Houston","POP_2010":2099451,"COUNTY":"Harris","COUNTYFIPS":"201","STATE":"TX","STATE_FIPS":"48","ELEV_IN_M":11,"ELEV_IN_FT":36,"PopLevel":5},"geometry":{"type":"Point","coordinates":[-95.36327149999988,29.763283600000193]}},{"type":"Feature","properties":{"OBJECTID":20932,"GNIS_ID":1343631,"ANSICODE":"2411380","FEATURE":"Civil","STATUS":null,"NAME":"Pasadena","POP_2010":149043,"COUNTY":"Harris","COUNTYFIPS":"201","STATE":"TX","STATE_FIPS":"48","ELEV_IN_M":9,"ELEV_IN_FT":30,"PopLevel":2},"geometry":{"type":"Point","coordinates":[-95.20910059999989,29.691062500000214]}}]}