{"type":"FeatureCollection","features":[{"type":"Feature","properties":{"STATUS":"County Seat","NAME":"Laredo","POP_2010":236091,"COUNTY":"Webb","COUNTYFIPS":"479","STATE":"TX","PopClass":8},"geometry":{"type":"Point","coordinates":[-99.5075421,27.50640700000025]}},{"type":"Feature","properties":{"STATUS":"County Seat","NAME":"Bryan","POP_2010":76201,"COUNTY":"Brazos","COUNTYFIPS":"041","STATE":"TX","PopClass":7},"geometry":{"type":"Point","coordinates":[-96.36996319999992,30.674364300000263]}},{"type":"Feature","properties":{"STATUS":"County Seat","NAME":"Conroe","POP_2010":56207,"COUNTY":"Montgomery","COUNTYFIPS":"339","STATE":"TX","PopClass":7},"geometry":{"type":"Point","coordinates":[-95.4560512,30.311876900000243]}},{"type":"Feature","properties":{"STATUS":"State Capital County Seat","NAME":"Austin","POP_2010":790390,"COUNTY":"Travis","COUNTYFIPS":"453","STATE":"TX","PopClass":9},"geometry":{"type":"Point","coordinates":[-97.7430608,30.26715300000012]}},{"type":"Feature","properties":{"STATUS":"County Seat","NAME":"Beaumont","POP_2010":118296,"COUNTY":"Jefferson","COUNTYFIPS":"245","STATE":"TX","PopClass":8},"geometry":{"type":"Point","coordinates":[-94.10184609999999,30.086045900000272]}},{"type":"Feature","properties":{"STATUS":"County Seat","NAME":"Corpus Christi","POP_2010":305215,"COUNTY":"Nueces","COUNTYFIPS":"355","STATE":"TX","PopClass":8},"geometry":{"type":"Point","coordinates":[-97.396381,27.800582800000143]}},{"type":"Feature","properties":{"STATUS":"County Seat","NAME":"Brownsville","POP_2010":175023,"COUNTY":"Cameron","COUNTYFIPS":"061","STATE":"TX","PopClass":8},"geometry":{"type":"Point","coordinates":[-97.49748379999988,25.90174720000016]}},{"type":"Feature","properties":{"STATUS":"County Seat","NAME":"Houston","POP_2010":2099451,"COUNTY":"Harris","COUNTYFIPS":"201","STATE":"TX","PopClass":10},"geometry":{"type":"Point","coordinates":[-95.36327149999988,29.763283600000193]}},{"type":"Feature","properties":{"STATUS":"County Seat","NAME":"New Braunfels","POP_2010":57740,"COUNTY":"Comal","COUNTYFIPS":"091","STATE":"TX","PopClass":7},"geometry":{"type":"Point","coordinates":[-98.12445309999981,29.703002400000116]}},{"type":"Feature","properties":{"STATUS":"County Seat","NAME":"Edinburg","POP_2010":77100,"COUNTY":"Hidalgo","COUNTYFIPS":"215","STATE":"TX","PopClass":7},"geometry":{"type":"Point","coordinates":[-98.1633432999999,26.301737400000206]}},{"type":"Feature","properties":{"STATUS":"County Seat","NAME":"San Antonio","POP_2010":1327407,"COUNTY":"Bexar","COUNTYFIPS":"029","STATE":"TX","PopClass":10},"geometry":{"type":"Point","coordinates":[-98.49362819999999,29.42412190000016]}},{"type":"Feature","properties":{"STATUS":"County Seat","NAME":"Victoria","POP_2010":62592,"COUNTY":"Victoria","COUNTYFIPS":"469","STATE":"TX","PopClass":7},"geometry":{"type":"Point","coordinates":[-97.00359819999989,28.805267400000275]}},{"type":"Feature","properties":{"STATUS":"County Seat","NAME":"El Paso","POP_2010":649121,"COUNTY":"El Paso","COUNTYFIPS":"141","STATE":"TX","PopClass":9},"geometry":{"type":"Point","coordinates":[-106.48693139999995,31.758719800000165]}},{"type":"Feature","properties":{"STATUS":"County Seat","NAME":"Amarillo","POP_2010":190695,"COUNTY":"Potter","COUNTYFIPS":"375","STATE":"TX","PopClass":8},"geometry":{"type":"Point","coordinates":[-101.83129689999993,35.22199710000018]}},{"type":"Feature","properties":{"STATUS":"County Seat","NAME":"Abilene","POP_2010":117063,"COUNTY":"Taylor","COUNTYFIPS":"441","STATE":"TX","PopClass":8},"geometry":{"type":"Point","coordinates":[-99.7331438999999,32.44873640000009]}},{"type":"Feature","properties":{"STATUS":"County Seat","NAME":"Lubbock","POP_2010":229573,"COUNTY":"Lubbock","COUNTYFIPS":"303","STATE":"TX","PopClass":8},"geometry":{"type":"Point","coordinates":[-101.85516649999988,33.57786310000017]}},{"type":"Feature","properties":{"STATUS":"County Seat","NAME":"Midland","POP_2010":111147,"COUNTY":"Midland","COUNTYFIPS":"329","STATE":"TX","PopClass":8},"geometry":{"type":"Point","coordinates":[-102.0779146999999,31.9973456000003]}},{"type":"Feature","properties":{"STATUS":"County Seat","NAME":"Odessa","POP_2010":99940,"COUNTY":"Ector","COUNTYFIPS":"135","STATE":"TX","PopClass":8},"geometry":{"type":"Point","coordinates":[-102.36764309999995,31.84568160000009]}},{"type":"Feature","properties":{"STATUS":"County Seat","NAME":"San Angelo","POP_2010":93200,"COUNTY":"Tom Green","COUNTYFIPS":"451","STATE":"TX","PopClass":7},"geometry":{"type":"Point","coordinates":[-100.4370374999998,31.463772300000244]}},{"type":"Feature","properties":{"STATUS":"County Seat","NAME":"Denton","POP_2010":113383,"COUNTY":"Denton","COUNTYFIPS":"121","STATE":"TX","PopClass":8},"geometry":{"type":"Point","coordinates":[-97.1330683,33.214841200000194]}},{"type":"Feature","properties":{"STATUS":"County Seat","NAME":"Dallas","POP_2010":1197816,"COUNTY":"Dallas","COUNTYFIPS":"113","STATE":"TX","PopClass":10},"geometry":{"type":"Point","coordinates":[-96.80666669999977,32.78305560000018]}},{"type":"Feature","properties":{"STATUS":"County Seat","NAME":"McKinney","POP_2010":131117,"COUNTY":"Collin","COUNTYFIPS":"085","STATE":"TX","PopClass":8},"geometry":{"type":"Point","coordinates":[-96.61526929999991,33.197616400000186]}},{"type":"Feature","properties":{"STATUS":"County Seat","NAME":"Fort Worth","POP_2010":741206,"COUNTY":"Tarrant","COUNTYFIPS":"439","STATE":"TX","PopClass":9},"geometry":{"type":"Point","coordinates":[-97.32084959999992,32.725409000000184]}},{"type":"Feature","properties":{"STATUS":"County Seat","NAME":"Wichita Falls","POP_2010":104553,"COUNTY":"Wichita","COUNTYFIPS":"485","STATE":"TX","PopClass":8},"geometry":{"type":"Point","coordinates":[-98.49338729999982,33.91370850000027]}},{"type":"Feature","properties":{"STATUS":"County Seat","NAME":"Waco","POP_2010":124805,"COUNTY":"McLennan","COUNTYFIPS":"309","STATE":"TX","PopClass":8},"geometry":{"type":"Point","coordinates":[-97.14666949999992,31.549333000000217]}},{"type":"Feature","properties":{"STATUS":"County Seat","NAME":"Longview","POP_2010":80455,"COUNTY":"Gregg","COUNTYFIPS":"183","STATE":"TX","PopClass":7},"geometry":{"type":"Point","coordinates":[-94.7404891,32.500703800000224]}},{"type":"Feature","properties":{"STATUS":"County Seat","NAME":"Tyler","POP_2010":96900,"COUNTY":"Smith","COUNTYFIPS":"423","STATE":"TX","PopClass":8},"geometry":{"type":"Point","coordinates":[-95.30106239999992,32.351260100000275]}}]}